{
"type": "FeatureCollection",
"name": "Persebaran RS di Balam",
"crs": { "type": "name", "properties": { "name": "urn:ogc:def:crs:OGC:1.3:CRS84" } },
"features": [
{ "type": "Feature", "properties": { "OID_": 0, "Name": "RSUD Dr. H Abdul Moeloek", "FolderPath": "Persebaran RS di balam.kml/Persebaran RS di balam", "SymbolID": 0, "AltMode": -1, "Base": 0.0, "Snippet": null, "PopupInfo": null, "HasLabel": -1, "LabelID": 0 }, "geometry": { "type": "Point", "coordinates": [ 105.258434384000054, -5.403039331999935, 0.0 ] } },
{ "type": "Feature", "properties": { "OID_": 0, "Name": "RS Urip Sumoharjo", "FolderPath": "Persebaran RS di balam.kml/Persebaran RS di balam", "SymbolID": 0, "AltMode": -1, "Base": 0.0, "Snippet": null, "PopupInfo": null, "HasLabel": -1, "LabelID": 0 }, "geometry": { "type": "Point", "coordinates": [ 105.276382074000082, -5.391592228999968, 0.0 ] } },
{ "type": "Feature", "properties": { "OID_": 0, "Name": "RS Immanuel", "FolderPath": "Persebaran RS di balam.kml/Persebaran RS di balam", "SymbolID": 0, "AltMode": -1, "Base": 0.0, "Snippet": null, "PopupInfo": null, "HasLabel": -1, "LabelID": 0 }, "geometry": { "type": "Point", "coordinates": [ 105.287772702000041, -5.386002773999962, 0.0 ] } },
{ "type": "Feature", "properties": { "OID_": 0, "Name": "RS Belleza", "FolderPath": "Persebaran RS di balam.kml/Persebaran RS di balam", "SymbolID": 0, "AltMode": -1, "Base": 0.0, "Snippet": null, "PopupInfo": null, "HasLabel": -1, "LabelID": 0 }, "geometry": { "type": "Point", "coordinates": [ 105.258450656000036, -5.38069169299996, 0.0 ] } },
{ "type": "Feature", "properties": { "OID_": 0, "Name": "RS Bhayangkara lampung", "FolderPath": "Persebaran RS di balam.kml/Persebaran RS di balam", "SymbolID": 0, "AltMode": -1, "Base": 0.0, "Snippet": null, "PopupInfo": null, "HasLabel": -1, "LabelID": 0 }, "geometry": { "type": "Point", "coordinates": [ 105.224238318000062, -5.37434183299996, 0.0 ] } },
{ "type": "Feature", "properties": { "OID_": 0, "Name": "RS Budi Medika", "FolderPath": "Persebaran RS di balam.kml/Persebaran RS di balam", "SymbolID": 0, "AltMode": -1, "Base": 0.0, "Snippet": null, "PopupInfo": null, "HasLabel": -1, "LabelID": 0 }, "geometry": { "type": "Point", "coordinates": [ 105.279196520000085, -5.443858551999938, 0.0 ] } },
{ "type": "Feature", "properties": { "OID_": 0, "Name": "RSU Hermina", "FolderPath": "Persebaran RS di balam.kml/Persebaran RS di balam", "SymbolID": 0, "AltMode": -1, "Base": 0.0, "Snippet": null, "PopupInfo": null, "HasLabel": -1, "LabelID": 0 }, "geometry": { "type": "Point", "coordinates": [ 105.26082507700005, -5.41771433599996, 0.0 ] } },
{ "type": "Feature", "properties": { "OID_": 0, "Name": "RSIA Bunda Asy-Syifa", "FolderPath": "Persebaran RS di balam.kml/Persebaran RS di balam", "SymbolID": 0, "AltMode": -1, "Base": 0.0, "Snippet": null, "PopupInfo": null, "HasLabel": -1, "LabelID": 0 }, "geometry": { "type": "Point", "coordinates": [ 105.271128604000069, -5.430002026999944, 0.0 ] } },
{ "type": "Feature", "properties": { "OID_": 0, "Name": "RSIA Mutiara Putri", "FolderPath": "Persebaran RS di balam.kml/Persebaran RS di balam", "SymbolID": 0, "AltMode": -1, "Base": 0.0, "Snippet": null, "PopupInfo": null, "HasLabel": -1, "LabelID": 0 }, "geometry": { "type": "Point", "coordinates": [ 105.262457573000063, -5.422949782999979, 0.0 ] } },
{ "type": "Feature", "properties": { "OID_": 0, "Name": "RSIA Puri Betik", "FolderPath": "Persebaran RS di balam.kml/Persebaran RS di balam", "SymbolID": 0, "AltMode": -1, "Base": 0.0, "Snippet": null, "PopupInfo": null, "HasLabel": -1, "LabelID": 0 }, "geometry": { "type": "Point", "coordinates": [ 105.266021070000079, -5.394145629999969, 0.0 ] } },
{ "type": "Feature", "properties": { "OID_": 0, "Name": "RSIA Restu bunda", "FolderPath": "Persebaran RS di balam.kml/Persebaran RS di balam", "SymbolID": 0, "AltMode": -1, "Base": 0.0, "Snippet": null, "PopupInfo": null, "HasLabel": -1, "LabelID": 0 }, "geometry": { "type": "Point", "coordinates": [ 105.256129801000043, -5.447630326999956, 0.0 ] } },
{ "type": "Feature", "properties": { "OID_": 0, "Name": "RSIA Santa Anna", "FolderPath": "Persebaran RS di balam.kml/Persebaran RS di balam", "SymbolID": 0, "AltMode": -1, "Base": 0.0, "Snippet": null, "PopupInfo": null, "HasLabel": -1, "LabelID": 0 }, "geometry": { "type": "Point", "coordinates": [ 105.267650012000047, -5.442652091999946, 0.0 ] } },
{ "type": "Feature", "properties": { "OID_": 0, "Name": "RS Mata Permata Sari", "FolderPath": "Persebaran RS di balam.kml/Persebaran RS di balam", "SymbolID": 0, "AltMode": -1, "Base": 0.0, "Snippet": null, "PopupInfo": null, "HasLabel": -1, "LabelID": 0 }, "geometry": { "type": "Point", "coordinates": [ 105.26295697900008, -5.421886459999939, 0.0 ] } },
{ "type": "Feature", "properties": { "OID_": 0, "Name": "RS Mata Lampung Eye Center (LEC)", "FolderPath": "Persebaran RS di balam.kml/Persebaran RS di balam", "SymbolID": 0, "AltMode": -1, "Base": 0.0, "Snippet": null, "PopupInfo": null, "HasLabel": -1, "LabelID": 0 }, "geometry": { "type": "Point", "coordinates": [ 105.277347296000073, -5.382919654999966, 0.0 ] } },
{ "type": "Feature", "properties": { "OID_": 0, "Name": "RS Tk. IV Bandar lampung", "FolderPath": "Persebaran RS di balam.kml/Persebaran RS di balam", "SymbolID": 0, "AltMode": -1, "Base": 0.0, "Snippet": null, "PopupInfo": null, "HasLabel": -1, "LabelID": 0 }, "geometry": { "type": "Point", "coordinates": [ 105.25833920000008, -5.40150575499996, 0.0 ] } },
{ "type": "Feature", "properties": { "OID_": 0, "Name": "RS. Advent", "FolderPath": "Persebaran RS di balam.kml/Persebaran RS di balam", "SymbolID": 0, "AltMode": -1, "Base": 0.0, "Snippet": null, "PopupInfo": null, "HasLabel": -1, "LabelID": 0 }, "geometry": { "type": "Point", "coordinates": [ 105.262396586000079, -5.392137144999936, 0.0 ] } },
{ "type": "Feature", "properties": { "OID_": 0, "Name": "RS Bumi Waras", "FolderPath": "Persebaran RS di balam.kml/Persebaran RS di balam", "SymbolID": 0, "AltMode": -1, "Base": 0.0, "Snippet": null, "PopupInfo": null, "HasLabel": -1, "LabelID": 0 }, "geometry": { "type": "Point", "coordinates": [ 105.251106200000038, -5.425223, 0.0 ] } },
{ "type": "Feature", "properties": { "OID_": 0, "Name": "RSUD Dr. A. Dadi Tjokrodipo", "FolderPath": "Persebaran RS di balam.kml/Persebaran RS di balam", "SymbolID": 0, "AltMode": -1, "Base": 0.0, "Snippet": null, "PopupInfo": null, "HasLabel": -1, "LabelID": 0 }, "geometry": { "type": "Point", "coordinates": [ 105.253205, -5.436275, 0.0 ] } },
{ "type": "Feature", "properties": { "OID_": 0, "Name": "RS Graha Husada", "FolderPath": "Persebaran RS di balam.kml/Persebaran RS di balam", "SymbolID": 0, "AltMode": -1, "Base": 0.0, "Snippet": null, "PopupInfo": null, "HasLabel": -1, "LabelID": 0 }, "geometry": { "type": "Point", "coordinates": [ 105.267771100000061, -5.413290899999936, 0.0 ] } },
{ "type": "Feature", "properties": { "OID_": 0, "Name": "RS Bintang Amin", "FolderPath": "Persebaran RS di balam.kml/Persebaran RS di balam", "SymbolID": 0, "AltMode": -1, "Base": 0.0, "Snippet": null, "PopupInfo": null, "HasLabel": -1, "LabelID": 0 }, "geometry": { "type": "Point", "coordinates": [ 105.219647579000082, -5.378913504999957, 0.0 ] } }
]
}
